{
    "data": [
        {
            "longitude": 120.23227913526993,
            "latitude": 30.214125039055258,
            "name": "文三路电子信息街区服务中心",
            "year": "1995",
            "projectNo": "9531013",
            "ownerUnit": "杭州通信设备厂",
            "recordTitle": "西湖区文三路，配电闸工程审批文件材料"
        },
        {
            "longitude": 120.22227913526993,
            "latitude": 30.314125039055258,
            "name": "嘉德（杭州）电子有限公司",
            "year": "1995",
            "projectNo": "9531013",
            "ownerUnit": "杭州通信设备厂",
            "recordTitle": "西湖区文三路，配电闸工程审批文件材料"
        },
        {
            "longitude": 120.41227913526993,
            "latitude": 30.224125039055258,
            "name": "浙江电力电子有限公司",
            "year": "1995",
            "projectNo": "9531013",
            "ownerUnit": "杭州通信设备厂",
            "recordTitle": "西湖区文三路，配电闸工程审批文件材料"
        },
        {
            "longitude": 120.53227913526993,
            "latitude": 30.114125039055258,
            "name": "杭州市土合电子有限公司",
            "year": "1995",
            "projectNo": "9531013",
            "ownerUnit": "杭州通信设备厂",
            "recordTitle": "西湖区文三路，配电闸工程审批文件材料"
        },
        {
            "longitude": 120.25227913526993,
            "latitude": 30.224125039055258,
            "name": "杭州石栏电子有限公司",
            "year": "1995",
            "projectNo": "9531013",
            "ownerUnit": "杭州通信设备厂",
            "recordTitle": "西湖区文三路，配电闸工程审批文件材料"
        },
        {
            "longitude": 120.27227913526993,
            "latitude": 30.244125039055258,
            "name": "文三路电子信息街区委员会",
            "year": "1995",
            "projectNo": "9531013",
            "ownerUnit": "杭州通信设备厂",
            "recordTitle": "西湖区文三路，配电闸工程审批文件材料"
        },
        {
            "longitude": 120.77227913526993,
            "latitude": 30.343125039055258,
            "name": "电子信息街区委员会",
            "year": "1995",
            "projectNo": "9531013",
            "ownerUnit": "杭州通信设备厂",
            "recordTitle": "西湖区文三路，配电闸工程审批文件材料"
        },
        {
            "longitude": 120.26227913526993,
            "latitude": 30.245125039055258,
            "name": "杭州信息街区委员会",
            "year": "1995",
            "projectNo": "9531013",
            "ownerUnit": "杭州通信设备厂",
            "recordTitle": "西湖区文三路，配电闸工程审批文件材料"
        },
        {
            "longitude": 120.27227913526993,
            "latitude": 30.211125039055258,
            "name": "政立路信息办",
            "year": "1995",
            "projectNo": "9531013",
            "ownerUnit": "杭州通信设备厂",
            "recordTitle": "西湖区文三路，配电闸工程审批文件材料"
        },
        {
            "longitude": 120.27327913526993,
            "latitude": 30.244225039055258,
            "name": "宝山路街区设备厂",
            "year": "1995",
            "projectNo": "9531013",
            "ownerUnit": "杭州通信设备厂",
            "recordTitle": "西湖区文三路，配电闸工程审批文件材料"
        },
        {
            "longitude": 120.26127913526993,
            "latitude": 30.234135039055258,
            "name": "普陀环境规划局",
            "year": "1995",
            "projectNo": "9531013",
            "ownerUnit": "杭州通信设备厂",
            "recordTitle": "西湖区文三路，配电闸工程审批文件材料"
        }
    ]
}